[
  { "id": "ATL", "name": "Mercedes-Benz Stadium",  "city": "Atlanta",         "country": "USA", "lat": 33.7553, "lon": -84.4006  },
  { "id": "BOS", "name": "Gillette Stadium",        "city": "Foxborough",      "country": "USA", "lat": 42.0909, "lon": -71.2643  },
  { "id": "DAL", "name": "AT&T Stadium",            "city": "Arlington",       "country": "USA", "lat": 32.7473, "lon": -97.0945  },
  { "id": "HOU", "name": "NRG Stadium",             "city": "Houston",         "country": "USA", "lat": 29.6847, "lon": -95.4107  },
  { "id": "KC",  "name": "Arrowhead Stadium",       "city": "Kansas City",     "country": "USA", "lat": 39.0489, "lon": -94.4839  },
  { "id": "LA",  "name": "SoFi Stadium",            "city": "Inglewood",       "country": "USA", "lat": 33.9535, "lon": -118.3392 },
  { "id": "MIA", "name": "Hard Rock Stadium",       "city": "Miami Gardens",   "country": "USA", "lat": 25.9580, "lon": -80.2389  },
  { "id": "NYC", "name": "MetLife Stadium",         "city": "East Rutherford", "country": "USA", "lat": 40.8135, "lon": -74.0745  },
  { "id": "PHI", "name": "Lincoln Financial Field", "city": "Philadelphia",    "country": "USA", "lat": 39.9008, "lon": -75.1675  },
  { "id": "SEA", "name": "Lumen Field",             "city": "Seattle",         "country": "USA", "lat": 47.5952, "lon": -122.3316 },
  { "id": "SF",  "name": "Levi's Stadium",          "city": "Santa Clara",     "country": "USA", "lat": 37.4033, "lon": -121.9694 },
  { "id": "VAN", "name": "BC Place",                "city": "Vancouver",       "country": "CAN", "lat": 49.2767, "lon": -123.1116 },
  { "id": "TOR", "name": "BMO Field",               "city": "Toronto",         "country": "CAN", "lat": 43.6332, "lon": -79.4187  },
  { "id": "MEX", "name": "Estadio Azteca",          "city": "Mexico City",     "country": "MEX", "lat": 19.3029, "lon": -99.1505  },
  { "id": "MTY", "name": "Estadio BBVA",            "city": "Monterrey",       "country": "MEX", "lat": 25.6694, "lon": -100.2464 },
  { "id": "GDL", "name": "Estadio Akron",           "city": "Guadalajara",     "country": "MEX", "lat": 20.6482, "lon": -103.4093 }
]
