[
  { "id": "ATL", "name": "Mercedes-Benz Stadium",  "city": "Atlanta",       "country": "USA", "lat": 33.7553, "lon": -84.4006,  "thumbnail": "/stadiums/atl.jpg" },
  { "id": "BOS", "name": "Gillette Stadium",        "city": "Boston",        "country": "USA", "lat": 42.0909, "lon": -71.2643,  "thumbnail": "/stadiums/bos.jpg" },
  { "id": "DAL", "name": "AT&T Stadium",            "city": "Dallas",        "country": "USA", "lat": 32.7473, "lon": -97.0945,  "thumbnail": "/stadiums/dal.jpg" },
  { "id": "HOU", "name": "NRG Stadium",             "city": "Houston",       "country": "USA", "lat": 29.6847, "lon": -95.4107,  "thumbnail": "/stadiums/hou.jpg" },
  { "id": "KC",  "name": "Arrowhead Stadium",       "city": "Kansas City",   "country": "USA", "lat": 39.0489, "lon": -94.4839,  "thumbnail": "/stadiums/kc.jpg"  },
  { "id": "LA",  "name": "SoFi Stadium",            "city": "Los Angeles",   "country": "USA", "lat": 33.9535, "lon": -118.3392, "thumbnail": "/stadiums/la.jpg"  },
  { "id": "MIA", "name": "Hard Rock Stadium",       "city": "Miami",         "country": "USA", "lat": 25.9580, "lon": -80.2389,  "thumbnail": "/stadiums/mia.jpg" },
  { "id": "NYC", "name": "MetLife Stadium",         "city": "New York",      "country": "USA", "lat": 40.8135, "lon": -74.0745,  "thumbnail": "/stadiums/nyc.jpg" },
  { "id": "PHI", "name": "Lincoln Financial Field", "city": "Philadelphia",  "country": "USA", "lat": 39.9008, "lon": -75.1675,  "thumbnail": "/stadiums/phi.jpg" },
  { "id": "SEA", "name": "Lumen Field",             "city": "Seattle",       "country": "USA", "lat": 47.5952, "lon": -122.3316, "thumbnail": "/stadiums/sea.jpg" },
  { "id": "SF",  "name": "Levi's Stadium",          "city": "San Francisco", "country": "USA", "lat": 37.4033, "lon": -121.9694, "thumbnail": "/stadiums/sf.jpg"  },
  { "id": "VAN", "name": "BC Place",                "city": "Vancouver",     "country": "CAN", "lat": 49.2767, "lon": -123.1116, "thumbnail": "/stadiums/van.jpg" },
  { "id": "TOR", "name": "BMO Field",               "city": "Toronto",       "country": "CAN", "lat": 43.6332, "lon": -79.4187,  "thumbnail": "/stadiums/tor.jpg" },
  { "id": "MEX", "name": "Estadio Azteca",          "city": "Mexico City",   "country": "MEX", "lat": 19.3029, "lon": -99.1505,  "thumbnail": "/stadiums/mex.jpg" },
  { "id": "MTY", "name": "Estadio BBVA",            "city": "Monterrey",     "country": "MEX", "lat": 25.6694, "lon": -100.2464, "thumbnail": "/stadiums/mty.jpg" },
  { "id": "GDL", "name": "Estadio Akron",           "city": "Guadalajara",   "country": "MEX", "lat": 20.6482, "lon": -103.4093, "thumbnail": "/stadiums/gdl.jpg" }
]
